{
  "type": "FeatureCollection",
  "features": [
    {"type":"Feature","properties":{"name":"Observation Point","notes":"Test","type":"observation"},"geometry":{"type":"Point","coordinates":[-88.3334091,17.1882582]}},
    {"type":"Feature","properties":{"name":"Field Camp","notes":"Field","type":"camp"},"geometry":{"type":"Point","coordinates":[-88.3334305,17.1882575]}},
    {"type":"Feature","properties":{"name":"Community Center","notes":"Meeting, workshop","type":"building"},"geometry":{"type":"Point","coordinates":[-88.3333745,17.1882362]}},
    {"type":"Feature","properties":{"name":"Community Centre","notes":"Other","type":"building"},"geometry":{"type":"Point","coordinates":[-88.3334412,17.1882152]}},
    {"type":"Feature","properties":{"name":"Community Shelter","notes":"Community shelter for meeting","type":"building"},"geometry":{"type":"Point","coordinates":[-88.33345,17.1882538]}},
    {"type":"Feature","properties":{"name":"Community Center","notes":"Research cluster","type":"building"},"geometry":{"type":"Point","coordinates":[-88.3334339,17.1882681]}},
    {"type":"Feature","properties":{"name":"Community Center","notes":"Other","type":"building"},"geometry":{"type":"Point","coordinates":[-88.3334238,17.1882634]}},
    {"type":"Feature","properties":{"name":"Community","notes":"Other","type":"building"},"geometry":{"type":"Point","coordinates":[-88.3334292,17.188243]}},
    {"type":"Feature","properties":{"name":"Fishing Activity","notes":"GG","type":"activity"},"geometry":{"type":"Point","coordinates":[-88.3334349,17.1882469]}},
    {"type":"Feature","properties":{"name":"Airstrip","notes":"Infrastructure","type":"aeroway"},"geometry":{"type":"Point","coordinates":[-88.3334228,17.1882444]}},
    {"type":"Feature","properties":{"name":"White Ridge Airstrip","notes":"Infrastructure","type":"aeroway"},"geometry":{"type":"Point","coordinates":[-88.3334232,17.188244]}}
  ]
}
